timestamp,latitude,longitude,altitude,heading,speed,roll,pitch
5,39.90833,32.75036,0.0,0.0,0.0,0.0,0.0
5,39.90833,32.75036,0.0,0.0,0.0,0.0,0.0
5,39.90833,32.75036,0.0,-0.024432438659312085,0.0,-1.5,0.6000000000000001
5,39.90865628099542,32.750360634824254,0.033161322158488354,-0.08551061144838114,144.0,0.0,-0.09999999999999987
5,39.90964949364387,32.750362572539586,0.09993630961847237,-0.08638326499821854,177.0,-0.5,0.10000000000000014
5,39.91003610040021,32.7503807122985,3.664644576526017,-4.7817795732744734,234.0,-9.0,3.6000000000000014
5,39.91057159960897,32.75046357161186,9.972435707643331,-8.587049228080165,297.0,1.5,3.000000000000001
5,39.91138626178484,32.7506130091627,24.316955765964448,-9.987386472228675,351.0,-4.5,6.600000000000004
5,39.914147442406545,32.75157324852693,112.736810545026,-20.34633271924736,396.0,-6.0,9.6
5,39.91675835800532,32.7532638737652,234.8053047442373,-28.774589524832773,441.0,-0.5,11.099999999999994
5,39.91875263797273,32.75469293984573,332.1572297767406,-29.09484526999763,464.5,-1.0,12.19999999999999
5,39.921205390934304,32.756535598000944,469.9498086361924,-30.193465849185074,475.0,0.0,13.299999999999986
5,39.923600147131545,32.75771443388675,619.057611935091,-15.190867121524988,467.0,5.0,16.499999999999975
5,39.92583695261972,32.75796718877424,768.0760561716818,27.25682284124847,458.5,11.5,19.899999999999963
5,39.927496387932706,32.75475108056687,998.1405715086594,71.00260560304123,451.5,5.5,20.299999999999947
5,39.927913009354654,32.7516626308399,1169.3617006057952,80.54720815438162,444.0,0.0,18.799999999999926
5,39.928358153624885,32.74873852024272,1326.0208829078283,75.80569646948251,436.5,-1.5,18.69999999999991
5,39.92891873046029,32.7462103214171,1462.1671186588935,73.372800243022,485.5,0.0,17.99999999999989
5,39.930284432091675,32.74076116616195,1763.8951836054923,70.1067204328966,611.5,0.0,18.299999999999876
5,39.93198699977885,32.734759733454496,2086.7988252044106,69.33356115044317,737.5,0.0,17.39999999999986
5,39.933409775208766,32.72984065770941,2333.7451806031013,69.33356115044317,825.5,0.0,15.999999999999842
5,39.93547174351028,32.72271146858462,2666.823267364802,69.33356115044317,819.0,0.0,14.699999999999847
5,39.936929006089514,32.71767290105543,2884.1343711256995,69.33356115044317,810.5,0.0,12.999999999999853
5,39.938669172814514,32.71165603540405,3108.774568294676,69.33356115044317,803.0,0.0,11.499999999999858
5,39.93889638886756,32.710870393113424,3135.5117123734917,69.33356115044317,792.0,0.0,9.299999999999866
5,39.940645190312324,32.704823496943085,3292.5717458884706,69.33356115044317,822.5,0.0,7.799999999999871
5,39.94264671325637,32.69790256835667,3444.6862449471964,69.33356115044317,900.0,0.0,6.499999999999876
5,39.945402018558504,32.68837486068269,3615.0113948346857,69.33356115044317,900.0,0.0,5.19999999999988
5,39.94741379640597,32.681730750769965,3729.2922426916175,65.34224366364369,900.0,-5.0,6.499999999999884
5,39.94984745360853,32.67644055178781,3861.5794704804275,49.17506517216316,900.0,-7.5,8.999999999999883
5,39.95344933223291,32.67219596671413,4016.068246497516,36.21103581821298,900.0,-6.5,7.699999999999887
5,39.95806285482262,32.66879210404643,4153.24272609095,24.174508557755065,900.0,-8.0,6.199999999999893
5,39.963663977481566,32.66640218892064,4273.191528753721,13.196763712576553,900.0,-6.5,4.699999999999898
5,39.96855706495299,32.66567210125149,4361.439890198825,1.9536094277914766,900.0,-6.5,5.1999999999999025
5,39.970541837751654,32.665736210657656,4416.187911167273,-2.217308287952637,900.0,0.0,9.199999999999902
5,39.97203843704844,32.66581182232486,4480.572057656094,-2.217308287952637,900.0,0.0,13.199999999999887
5,39.97390601484669,32.6659061790007,4588.321049938128,-2.217308287952637,900.0,0.0,17.199999999999875
5,39.9759105598386,32.666007458607375,4732.387189395452,-2.217308287952637,900.0,0.0,21.19999999999986
5,39.97726896599804,32.66607609376417,4847.965054181596,-2.217308287952637,900.0,0.0,25.199999999999847
5,39.978844010800884,32.666155676558944,5005.326957749924,-2.217308287952637,900.0,0.0,29.39999999999983
5,39.981307534219724,32.666280155182406,5259.383631460365,-2.217308287952637,900.0,0.0,26.19999999999984
5,39.98301247942018,32.66636630665561,5408.659683353316,-2.217308287952637,900.0,0.0,21.999999999999854
5,39.987375821818155,32.666616634614066,5748.025666770068,-6.168544981305035,893.5,-3.0,21.89999999999984
5,39.991713338530836,32.66948185582153,6161.246528253327,-33.73659891654863,886.0,-2.5,22.799999999999823
5,39.99433276146444,32.672394812477435,6438.674252966058,-45.0497368681494,877.5,0.0,20.299999999999816
5,39.99772646360789,32.67694025977637,6784.47533523422,-46.22517561424098,870.0,0.0,18.399999999999803
5,39.99961112999534,32.67950799242502,6963.692563518862,-46.22517561424098,860.0,0.0,16.399999999999775
5,40.002258558097864,32.68332694659483,7186.074232717019,-48.36122815524125,851.5,0.0,14.699999999999775
5,40.00713887735684,32.6904932489097,7572.4379150358545,-48.36122815524125,846.0,0.0,13.59999999999978
5,40.0112119750819,32.69647461655805,7869.157624010507,-48.36122815524125,840.0,0.0,12.399999999999784
5,40.01517983476678,32.702301785245496,8129.624432607976,-48.36122815524125,833.0,0.0,10.999999999999789
5,40.01908657267013,32.708039526024805,8357.81850467901,-48.36122815524125,827.0,0.0,9.799999999999793
5,40.02263441274647,32.71317895024494,8542.581793297175,-47.08029495284072,819.5,0.0,8.099999999999799
5,40.02393698254868,32.715008140583464,8584.144032474376,-47.08029495284072,809.5,0.0,4.9999999999998
5,40.02802702823158,32.7207519843589,8679.209943338781,-47.08029495284072,802.5,0.0,3.599999999999803
5,40.03102060603449,32.7249562237658,8729.70520363586,-47.08029495284072,795.0,0.0,2.0999999999998016
5,40.03104991181301,32.72499738250643,8729.952406646575,-47.08727545025435,784.0,-2.0,0.09999999999980086
5,40.03418507601341,32.72940252359385,8730.978230085233,-47.09251064056831,777.0,0.0,0.09999999999980086
5,40.03784454276825,32.734544643843904,8731.953360168009,-47.09251064056831,770.5,0.0,-1.9914625504213745e-13
5,39.90833,32.75036,0.0,0.0,0.0,0.0,0.0
5,39.90833,32.75036,0.0,0.0,0.0,0.0,0.0
5,39.90833,32.75036,0.0,0.0,0.0,0.0,0.0
5,39.90833,32.75036,0.0,0.0,0.0,0.0,0.0
5,39.9084368624854,32.75036,0,0.0,63.0,0.0,0.0
5,39.90884946545585,32.75036,0,0.0,56.0,0.0,0.0
5,39.90910811036672,32.75036,0,0.0,47.5,0.0,0.0
5,39.90934597506512,32.750360002306635,0.023594314242911963,-0.008726269674588193,39.0,-1.0,0.4
5,39.909483313668304,32.750360482853,0.18389600329655928,-0.49898267400812146,200.5,0.0,5.551115123125783e-17
5,39.91121074784592,32.750380096189694,0,-0.49898267400812146,335.5,0.0,-0.19999999999999996
5,39.90833,32.75036,0.0,0.0,0.0,0.0,0.0
5,39.90833,32.75036,0.0,0.0,0.0,0.0,0.0
5,39.90833,32.75036,0,0.0,0.0,0.0,0.0
5,39.90833,32.75036,0,0.0,0.0,0.0,0.0
5,39.90833,32.75036,0,0.0,0.0,0.0,0.0
5,39.90833,32.75036,0,0.0,0.0,0.0,0.0
5,39.90833,32.75036,0,0.0,0.0,0.0,0.0
5,39.90833,32.75036,0,0.0,0.0,0.0,0.0
5,39.90833,32.75036,0,0.0,0.0,0.0,0.0
5,39.90833,32.75036,0,0.0,0.0,0.0,0.0
5,39.90833,32.75036,0,0.0,0.0,0.0,0.0
5,39.90834299766699,32.75036,0,0.0,18.0,0.0,0.0
5,39.909047374265185,32.75036,0,0.0,144.0,0.0,0.0
5,39.91079077028909,32.75036,0,0.0,252.0,0.0,0.0
5,39.913285834945036,32.75036,0,0.0,369.0,0.0,0.0
5,39.916196969714555,32.75036,0,0.0,495.0,0.0,0.0
5,39.92044076201996,32.75036,0,0.0,603.0,0.0,0.0
5,39.92457856719762,32.75036,0,0.0,605.5,0.0,0.0
5,39.929260827674504,32.75036,0,0.0,599.0,0.0,0.0
5,39.9337394764883,32.75036,0,0.0,592.5,0.0,0.0
5,39.93549340549188,32.75036666205792,2.6303450114455704,-1.9455844747020896,583.0,-9.0,2.4
5,39.93717111105411,32.75066548230896,20.70178697762673,-11.458815577507208,573.0,-6.0,1.2
5,39.940686076230605,32.75161447181874,20.67256278294164,-11.69586910483257,566.0,0.0,5.551115123125783e-17
5,39.94488153185301,32.75274729465856,19.114540566982217,-11.69586910483257,560.0,0.0,5.551115123125783e-17
5,39.94985322188244,32.75408979890199,18.863367899056875,-11.69586910483257,553.0,0.0,0.8
5,39.95244786433639,32.75479046976106,47.957985615513465,-11.69586910483257,543.0,0.0,4.800000000000002
5,39.95722509563532,32.75608060578786,121.44098966763434,-11.69586910483257,536.0,0.0,2.8
5,39.96247731416036,32.7574991201418,150.11012594965882,-11.69586910483257,529.5,0.0,0.19999999999999962
5,39.967360158179076,32.75881797229359,151.93393884661734,-11.69586910483257,523.0,0.0,-3.885780586188048e-16
5,39.97254078945169,32.760217358463706,153.9409962626455,-11.69586910483257,516.5,0.0,0.19999999999999962
5,39.97749287420333,32.76155511002492,155.50465940352944,-11.69586910483257,510.0,0.0,-3.885780586188048e-16
5,39.981987936305885,32.76276948607914,157.37524518554952,-11.69586910483257,503.5,0.0,0.19999999999999962
5,39.98644029148523,32.763972403189754,158.83904443750112,-11.69586910483257,497.0,0.0,-3.885780586188048e-16
5,39.991622531807984,32.765372615348895,161.1439718800595,-11.69586910483257,490.5,0.0,0.19999999999999962
5,39.99622771908101,32.76661700094716,162.8499329525723,-11.69586910483257,484.0,0.0,-3.885780586188048e-16
5,40.00061356179589,32.767802194779435,164.51211447041774,-11.69586910483257,478.0,0.0,-3.885780586188048e-16
5,40.00519624117688,32.769040661326976,166.58531545739822,-11.69586910483257,471.0,0.0,-3.885780586188048e-16
5,40.009820445298736,32.77029043371465,168.54945697015987,-11.69586910483257,464.5,0.0,0.19999999999999962
5,40.014254092794374,32.771488784328774,170.27130455069707,-11.69586910483257,456.5,0.0,0.19999999999999962
5,40.01882815446504,32.77272516877,171.8723234975302,-11.69586910483257,450.0,0.0,-3.885780586188048e-16
5,40.02390647654432,32.77409795367984,173.96900178392653,-11.69586910483257,443.5,0.0,0.19999999999999962
5,40.028653584429385,32.77538129621028,175.46983237126145,-11.69586910483257,437.0,0.0,-3.885780586188048e-16
5,40.033305721535946,32.776639050908294,177.31906357161995,-11.69586910483257,431.0,0.0,-3.885780586188048e-16
5,40.03819267116451,32.77796038179676,179.53848188848733,-11.69586910483257,424.5,0.0,0.19999999999999962
5,40.04287887707657,32.77922752482346,181.37161302944133,-11.69586910483257,418.0,0.0,-3.885780586188048e-16
5,40.0474317944182,32.78045871052376,183.0717130256007,-11.69586910483257,411.5,0.0,0.19999999999999962
5,40.05183925482469,32.781650640547,184.500629864959,-11.69586910483257,405.0,0.0,-3.885780586188048e-16
5,40.05631016106287,32.782859807141094,186.0151653306476,-11.69586910483257,398.5,0.0,0.19999999999999962
5,40.06034516523371,32.7839511513961,187.36994051087396,-11.69586910483257,392.0,0.0,-3.885780586188048e-16
5,40.06478535721817,32.78515216078776,189.261237843965,-11.69586910483257,386.0,0.0,-3.885780586188048e-16
5,40.06879533377744,32.786236870729105,190.83660242028512,-11.69586910483257,380.0,0.0,-3.885780586188048e-16
5,40.07265706038619,32.787281538816224,192.4071275396447,-11.69586910483257,373.0,0.0,-3.885780586188048e-16
5,40.07697787643921,32.78845046945637,194.23451516800452,-11.69586910483257,366.5,0.0,0.19999999999999962
5,40.08078240930214,32.78947978912323,195.804526624138,-11.69586910483257,359.5,0.0,0.19999999999999962
5,40.084157995448216,32.79039310499106,196.81153907538308,-11.69586910483257,352.0,0.0,-3.885780586188048e-16
5,40.088080773393,32.791454528807385,198.4508032173014,-11.69586910483257,345.0,0.0,-3.885780586188048e-16
5,40.09187687807437,32.79248173550176,200.1308290341908,-11.69586910483257,338.0,0.0,-3.885780586188048e-16
5,40.09574597004195,32.79352875120395,201.54662165051886,-11.69586910483257,331.5,0.0,0.19999999999999962
5,40.09904596538009,32.794421810908716,202.8317325463435,-11.69586910483257,325.0,0.0,-3.885780586188048e-16
5,40.10245096640343,32.79534333307523,204.2512812437395,-11.69586910483257,318.5,0.0,0.19999999999999962
5,40.10580393326983,32.79625081804569,205.69940549465872,-11.69586910483257,311.0,0.0,-3.885780586188048e-16
5,40.10931411469542,32.79720090107481,206.9919626249521,-11.69586910483257,304.5,0.0,0.19999999999999962
5,40.112661564148,32.79810699751796,208.53453456985523,-11.699359586120027,297.5,-1.0,0.19999999999999962
5,40.115171561156004,32.798854597818845,223.95681032735058,-16.2588631998872,288.0,-10.5,3.6000000000000005
5,40.11704162745342,32.79975745578997,238.3982419081723,-21.536461096744752,279.0,-2.5,0.39999999999999963
5,40.119966607195664,32.80126773315519,239.5657087086072,-21.54693147737271,272.0,0.0,-3.885780586188048e-16
5,40.12289929224409,32.80278207698284,240.93116266791066,-21.54693147737271,265.5,0.0,0.19999999999999962
5,40.125534432532056,32.804142834346884,241.9733027821719,-21.54693147737271,259.5,0.0,0.19999999999999962
5,40.12808797858274,32.805461507499565,243.19135766413464,-21.54693147737271,252.5,0.0,0.19999999999999962
5,40.13065651261285,32.80678797072171,244.04670698873684,-21.54693147737271,246.0,0.0,-3.885780586188048e-16
5,40.133053032978786,32.80802564655786,245.08653178665722,-21.54693147737271,239.5,0.0,0.19999999999999962
5,40.135586061493065,32.809333869195754,246.051001048683,-21.54693147737271,233.0,0.0,-3.885780586188048e-16
5,40.13780328456859,32.81047995693321,248.44084646444418,-21.705706048250892,226.0,-3.0,1.1999999999999995
5,40.13983237044194,32.811626447544924,269.4780583729306,-28.329197312211313,293.0,-10.5,4.600000000000001
5,40.14185847605959,32.81431140879542,344.71382666381345,-65.77240671798982,373.0,-20.5,8.600000000000001
5,40.14187456681814,32.8194540354817,467.0537779195974,-102.50340420213674,425.0,-17.0,7.200000000000003
5,40.14002730804075,32.82450641691452,554.0207654330067,-122.48756798000352,489.0,-9.0,4.0
5,40.13676279772789,32.830527033172366,599.0087075730796,-126.10957128170034,549.0,-1.5,0.9999999999999987
5,40.13329429487454,32.83674198696241,603.3087835040975,-126.12876912814919,605.0,0.0,0.19999999999999873
5,40.12880415002306,32.844787075717946,605.9876952995587,-126.12876912814919,657.0,0.0,-1.27675647831893e-15
5,40.124407934008126,32.852663356279194,608.7141352502006,-126.12876912814919,705.0,0.0,-1.27675647831893e-15
5,40.11943339472335,32.86157515016489,612.0789279519017,-126.12876912814919,757.0,0.0,0.19999999999999873
5,40.11454788256813,32.870326829614804,615.7942442565218,-126.12876912814919,777.0,0.0,0.19999999999999873
5,40.10930352284644,32.87971892435526,623.4342008716214,-126.19857224155972,791.0,-2.0,0.9999999999999987
5,40.10472145183869,32.88763206041644,659.4410614762323,-127.47166021107387,793.0,0.0,-1.27675647831893e-15
5,40.099576973240275,32.89640619017832,662.5422609440853,-127.47166021107387,786.5,0.0,0.19999999999999873
5,40.09393681848465,32.906024954488714,665.6251508945506,-127.47166021107387,780.0,0.0,-1.27675647831893e-15
5,40.08882324419897,32.91474499537893,668.520951818539,-127.47166021107387,773.0,0.0,-1.27675647831893e-15
5,40.08343029013979,32.92394074654742,672.1340639982387,-127.47166021107387,767.0,0.0,-1.27675647831893e-15
5,40.078302229019016,32.93268414197702,675.5100584262534,-127.47166021107387,760.0,0.0,-1.27675647831893e-15
5,40.07277313371731,32.942110568302475,679.8720126928328,-127.47166021107387,753.5,0.0,0.19999999999999873
5,40.067706721566196,32.95074750208631,683.1104317581957,-127.47166021107387,747.0,0.0,-1.27675647831893e-15
5,40.06271146402805,32.95926163982284,685.8959418309407,-127.47515069236132,741.0,0.0,-1.27675647831893e-15
5,40.05784669131336,32.96755257002366,689.5041812167966,-127.47515069236132,734.5,0.0,0.19999999999999873
5,40.05252583850399,32.97662011085863,692.3521217502749,-127.47515069236132,728.0,0.0,-1.27675647831893e-15
5,40.04762134939681,32.984977477773704,695.1080070323471,-127.47515069236132,721.0,0.0,-1.27675647831893e-15
5,40.042626466815776,32.99348826420748,698.2192686547073,-127.47515069236132,714.5,0.0,0.19999999999999873
5,40.03788608454291,33.001564824848785,700.6454459893516,-127.47515069236132,708.0,0.0,-1.27675647831893e-15
5,40.033354069590715,33.00928584771815,703.4507449624654,-127.47515069236132,702.0,0.0,-1.27675647831893e-15
5,40.028391514970316,33.01773977925919,707.0870870989165,-127.47515069236132,695.0,0.0,-1.27675647831893e-15
5,40.0237320353157,33.02567684895958,709.7409893375215,-127.47515069236132,689.0,0.0,-1.27675647831893e-15
5,40.01887380231502,33.03395189993997,712.9564838518332,-127.47515069236132,682.5,0.0,0.19999999999999873
5,40.01425377246586,33.04182067301646,715.969566468986,-127.47515069236132,676.0,0.0,-1.27675647831893e-15
5,40.00986434305888,33.049296195513755,718.7046730618326,-127.47515069236132,670.0,0.0,-1.27675647831893e-15
5,40.00516446934452,33.05729989687511,721.5908008788277,-127.47515069236132,663.0,0.0,-1.27675647831893e-15
5,40.0009001949414,33.064561310335584,724.2639989199628,-127.47515069236132,657.0,0.0,-1.27675647831893e-15
5,39.99693036772773,33.07132101415903,727.098033413207,-127.47166021107387,649.0,1.5,-1.27675647831893e-15
5,39.99279039675185,33.078372686165785,729.4954977892268,-127.44897467426463,641.5,2.5,0.19999999999999873
5,39.989451732606575,33.08414320206936,755.4867056400491,-126.63101027144722,631.5,0.0,2.999999999999999
5,39.98563325181187,33.090846281262635,808.8423648165124,-126.63101027144722,624.5,0.0,0.9999999999999987
5,39.98117467992006,33.09867252374055,815.8785108412943,-126.63101027144722,618.0,0.0,-1.27675647831893e-15
5,39.976955931965726,33.10607732480537,818.3702885184755,-126.63101027144722,611.5,0.0,0.19999999999999873
5,39.972908079599335,33.11318173713493,820.4359172204997,-126.63101027144722,605.0,0.0,-1.27675647831893e-15
5,39.9688992626577,33.1202172233356,823.0093043474462,-126.63101027144722,599.0,0.0,-1.27675647831893e-15
5,39.96470353845509,33.127580289576706,825.6241195433199,-126.63101027144722,592.0,0.0,-1.27675647831893e-15
5,40.33384300369418,42.58463708427974,28.266359188873267,1.074757532254528,187.0,3.5,4.000000000000001
5,40.33543262738611,42.58452202870557,49.29625595323464,4.6319276264821685,255.5,1.0,2.5999999999999996
5,40.33732627641487,42.584230196822084,70.56251557547348,9.830787957459497,426.5,5.5,3.2
5,40.34107291574816,42.58326549206714,94.23129190911978,11.67545511755954,561.5,3.0,0.5999999999999996
5,40.34552081662033,42.581935786269476,115.33946517283236,13.26902275415945,705.5,2.0,0.5999999999999996
5,40.35183194979902,42.579980884077536,118.9549592840659,13.286474628969406,840.5,0.5,0.39999999999999963
5,40.35740673072619,42.57803702411605,167.41607690617687,17.431812279933478,900,8.0,3.8000000000000007
5,40.366582156515875,42.57361113493178,268.50087825327546,21.23482537180611,900,2.5,1.5999999999999994
5,40.37601523678269,42.568775588627915,286.63869423663743,21.339530639995044,900,0.0,0.19999999999999962
5,40.38482857837934,42.56425557785728,289.9674475077724,21.339530639995044,900,0.5,-3.885780586188048e-16
5,40.3921433598729,42.56048940163325,309.3399195775912,21.451201455185757,900,0.0,2.3999999999999995
5,40.397213350006865,42.55787367800735,399.33709350064714,21.451201455185757,900,0.0,6.400000000000003
5,40.40370168884014,42.55452591879853,578.7932779348122,21.451201455185757,900,0.0,6.000000000000002
5,40.41174140547741,42.5503772555625,725.1921020411315,21.451201455185757,900,0.0,2.5999999999999988
5,40.42011879587567,42.54605381786063,763.2984314990165,21.451201455185757,900,0.0,0.19999999999999873
5,40.43008873728761,42.54090780073757,766.7680642909162,21.451201455185757,900,0.0,-1.27675647831893e-15
5,40.43969246541634,42.53595007503549,771.5255417462307,21.451201455185757,900,0.0,0.19999999999999873
5,40.44857821102626,42.53136235940971,775.1098655846039,21.451201455185757,900,0.0,0.19999999999999873
5,40.45808560174042,42.52645301903101,778.8919107560486,21.451201455185757,900,0.0,0.19999999999999873
5,40.467710546586545,42.52148227733998,782.457441869906,21.451201455185757,900,0.0,0.19999999999999873
5,40.47730273482554,42.516527735729795,786.4459396135483,21.451201455185757,900,0.0,-1.27675647831893e-15
5,40.48609591445027,42.51198527571858,790.580067864468,21.451201455185757,900,0.0,-1.27675647831893e-15
5,40.49611324883296,42.50680970974359,794.0217542496555,21.451201455185757,900,0.0,0.19999999999999873
5,40.33151,42.58464,0.0,0.0,0.0,0.0,0.0
5,40.33151,42.58464,0.0,0.0,0.0,0.0,0.0
5,40.33151,42.58464,0.0,0.0,0.0,0.0,0.0
5,40.33151,42.58464,0.0,0.0,0.0,0.0,0.0
5,40.33151,42.58464,0.0,0.0,0.0,0.0,0.0
5,40.33151,42.58464,0,0.0,0.0,0.0,0.0
5,40.33187472918082,42.584639879780056,0.2194881309401,0.057591146993212376,144.0,1.5,0.6000000000000001
5,40.332128066264815,42.584616328313516,3.3668813181655026,7.676590013881066,312.0,9.0,3.6000000000000005
5,40.33381440351728,42.58406105197514,28.939706413952493,18.938981992811975,335.0,9.0,3.6000000000000005
5,40.33617998231403,42.58286357633156,50.63337950730265,21.951177293739217,347.0,3.0,1.1999999999999995
5,40.338163786593654,42.581808237001106,52.872373964734294,22.08377757396036,367.0,0.0,-3.885780586188048e-16
5,40.33923612474815,42.5812362109786,54.13395616204378,22.755168315983383,418.0,5.0,1.9999999999999993
5,40.34093171334689,42.58016817426429,71.39994024931931,27.954600982177354,418.5,8.5,2.5999999999999996
5,40.34242437755825,42.57886543277974,97.6680392113086,37.03666676032843,410.0,10.0,4.800000000000002
5,40.34461767099811,42.57626356226104,165.97826959179318,47.52469127114634,403.0,7.0,7.600000000000004
5,40.34533490990245,42.57411082276423,234.31185197212864,74.60874731332754,394.0,7.0,11.199999999999992
5,40.345768411712086,42.57005553934301,383.1146902456698,84.28621141422525,387.5,0.5,13.799999999999983
5,40.34594930623956,42.56644529251306,516.1092807643522,89.61392255299212,381.5,3.0,11.79999999999999
5,40.34590127185985,42.56273697081204,630.0476929777138,92.03952356695012,374.5,2.0,10.999999999999993
5,40.34574782703287,42.561636582401306,658.0578879043705,108.49656398571358,364.5,9.0,7.000000000000003
5,40.345518439577454,42.56116132071645,665.5812514440139,132.39963558914098,354.0,19.5,2.799999999999999
5,40.345102029175884,42.56067551429217,666.9675499535545,139.4841167333667,344.5,27.0,0.19999999999999873
5,40.34425115657233,42.55973266425357,667.470634959286,140.19797839260877,336.5,26.0,0.19999999999999873
5,40.342832032374176,42.55819149317137,667.8920264535755,140.89611387322205,328.5,28.0,0.19999999999999873
5,40.340733637253294,42.55608887155983,677.780755992169,145.5327361100055,322.0,24.5,1.5999999999999985
5,40.339274794953425,42.55493847768289,687.4916377075598,155.6514535556624,314.5,21.0,2.5999999999999988
5,40.33733395361824,42.55402171615978,702.7001608640361,165.92457275578224,307.0,19.5,2.799999999999999
5,40.33620377155462,42.55411701774109,720.0483788289173,191.9770405938685,309.0,24.0,4.6000000000000005
5,40.3351953815054,42.55478160159752,738.0547175659136,217.87097710717828,326.0,18.5,2.3999999999999986
5,40.33489061653182,42.55512940923301,739.1249416266362,221.72790327117394,345.0,9.0,0.19999999999999873
5,40.33310043064385,42.55722864317505,740.1046051355825,221.84286708724747,357.0,3.0,0.19999999999999873
5,40.33234242374894,42.558119380554125,740.7615705219123,221.85333746787543,372.0,0.0,-1.27675647831893e-15
5,40.330256710512046,42.56056996691396,742.6649767296941,221.84810207821386,386.0,0.5,0.39999999999999875
5,40.3286549549062,42.56248593420434,748.9771849467647,222.4064068534701,401.0,0.0,0.19999999999999873
5,40.32663515874028,42.564905727247314,750.0439337060099,222.4064068534701,401.5,0.0,0.19999999999999873
5,40.32461902322402,42.567321063019165,750.9142934361507,222.4064068534701,395.0,0.0,-1.27675647831893e-15
5,40.32213383790541,42.5702981104908,752.7281446665486,222.38197441481077,389.5,-1.5,0.5999999999999988
5,40.32078521898532,42.57193563991921,760.4583925600853,224.00698681731922,381.0,5.0,2.3999999999999986
5,40.31995860765632,42.57310925576781,775.710790283076,234.30432202951135,372.5,12.5,4.6000000000000005
5,40.31933215385777,42.57537389354113,815.1299164730334,260.7135911659848,364.0,16.0,6.000000000000002
5,40.31933577691293,42.57603916070896,823.0158760838452,276.38346515009937,354.0,6.0,1.9999999999999984
5,40.319612909348905,42.57903046669728,829.9185154684989,277.03901662793464,347.5,0.0,0.19999999999999873
5,40.3199516596571,42.58262869761284,830.8942002440784,277.03901662793464,342.0,0.0,-1.27675647831893e-15
5,40.32025619575198,42.58586351820859,831.8754703782553,277.03901662793464,336.0,0.0,-1.27675647831893e-15
5,40.32053315195832,42.588805394655914,832.7598992598417,277.03901662793464,329.5,0.0,0.19999999999999873
5,40.32082778181047,42.59193501670208,833.8058443070169,277.03901662793464,323.5,0.0,0.19999999999999873
5,40.32104769614293,42.59416092792701,839.0671883627167,278.04871205560727,315.5,3.5,1.3999999999999986
5,40.32138962168519,42.59714074440228,850.9791249472662,279.3843433482071,309.0,5.0,1.9999999999999984
5,40.32174541517366,42.59972964414297,863.2514227869981,280.97969561119896,302.5,2.5,0.9999999999999987
5,40.32209971017222,42.601753595075444,875.0343613601838,284.37299128668354,294.5,6.5,2.1999999999999984
5,40.3226815021753,42.6042049223437,899.2476924010534,290.16749438039045,287.5,7.5,4.2
5,40.323504934963104,42.6065731902092,931.7381926741423,297.82781460856177,280.5,6.5,4.2
5,40.324489232152324,42.60863991147542,961.5584302713669,303.87589086221925,274.5,4.5,3.3999999999999995
5,40.32552426264605,42.6105560833949,980.1051547623255,305.99266506940484,308.0,0.0,1.3999999999999986
5,40.32687675516231,42.61299851865088,982.7235871121173,305.99266506940484,325.0,0.0,-1.27675647831893e-15
5,40.32824597100834,42.61547098951584,983.4616339802378,306.01011681130285,347.0,1.5,0.39999999999999875
5,40.32915604669358,42.617088688368945,986.8634343686654,306.59974529439984,374.0,3.0,0.5999999999999988
5,40.33038518122788,42.6191951772891,995.0792286652439,308.4845464289586,366.0,7.0,1.3999999999999986
5,40.33196907200448,42.62160907481656,1014.6380920800773,312.79481446725646,359.5,10.5,2.3999999999999986
5,40.33364780872307,42.62365079571425,1038.13018949919,322.62189335863604,351.5,11.5,3.1999999999999993
5,40.335791250715936,42.62548108558172,1067.6000819171527,329.58488781529485,345.5,8.5,2.3999999999999986
5,40.33761170342471,42.62677505768803,1087.3827264184595,335.52237038845124,338.0,12.0,2.999999999999999
5,40.33917352357405,42.627480846852905,1107.5261410914377,348.56443005052574,330.0,14.0,3.8
5,40.340570434606995,42.62767052806234,1116.6583402951774,355.6023943651814,321.5,9.5,1.9999999999999984
5,40.3425985028728,42.627709069880524,1133.1434829318237,361.43921076436914,314.0,9.0,1.7999999999999985
5,40.34415649005802,42.62762826049246,1135.3000865260756,362.38949642146025,307.0,2.0,0.19999999999999873
5,40.34613813729477,42.62751961933867,1135.8038840384497,362.3929869027477,299.5,0.0,-0.4000000000000013
5,40.34657342552791,42.627495751692486,1131.851753823399,362.3929869027477,289.5,0.0,-4.400000000000003
5,40.346895290675604,42.627478103140035,1124.515895923221,362.3929869027477,279.0,0.0,-8.600000000000003
5,40.34877245798161,42.627375172504955,1069.2614093352377,362.3929869027477,272.5,0.0,-6.800000000000004
5,40.349547172672914,42.62733269174859,1053.611854244859,362.3929869027477,263.5,0.0,-3.200000000000001
5,40.35104097114002,42.62725077940413,1042.840111551533,362.3929869027477,256.0,0.0,-2.2
5,40.3520581099872,42.62719500357997,1029.1417565887537,362.3929869027477,248.0,0.0,-3.4000000000000012
5,40.35305315632154,42.627141035853725,1008.2175632276712,362.33190115425907,238.5,0.0,-7.200000000000005
5,40.35460223626264,42.62711487009607,957.9785346967694,358.5736818105511,231.5,1.0,-9.999999999999998
5,40.356583821141086,42.62718365916881,871.8487508275884,358.48467114846767,225.5,0.0,-12.39999999999999
5,40.359109128638444,42.62727132599665,745.5032404713995,358.48467114846767,220.5,0.0,-14.399999999999983
5,40.36094606085321,42.6273350977833,639.0496288830022,358.48467114846767,215.0,0.0,-16.199999999999978
5,40.36224953245276,42.62738035077009,567.0237661166833,358.48467114846767,207.5,0.0,-13.199999999999989
5,40.36336769742411,42.62741917112665,517.4154929720985,358.48467114846767,201.0,0.0,-10.599999999999998
5,40.3644936415218,42.627458262188746,469.6017913197347,358.48467114846767,193.0,0.0,-12.199999999999992
5,40.3649803939784,42.627475161707,445.9630974317408,358.48467114846767,183.5,0.0,-15.199999999999982
5,40.365905340176596,42.62750727515574,391.79255052507943,358.48467114846767,175.5,0.0,-16.799999999999976
5,40.36673797357494,42.62753618396113,338.7406943155263,358.48467114846767,167.5,0.0,-17.199999999999974
5,40.36690502562352,42.62754198400902,326.911834911581,358.48467114846767,157.5,0.0,-21.19999999999996
5,40.36768475703344,42.62756905645752,262.66814902984834,358.48467114846767,149.0,0.0,-22.199999999999957
5,40.3680176959964,42.62758061627455,236.5404230528051,358.48467114846767,140.0,0.0,-21.799999999999958
5,40.36887179604655,42.6276102713309,174.1126650666013,358.48467114846767,132.5,0.0,-18.79999999999997
5,40.369476876493856,42.62763128045383,134.36640945405426,358.48467114846767,125.0,0.0,-16.199999999999978
5,40.36962684125745,42.627636487442246,126.8548812923802,358.48467114846767,114.5,0.0,-11.999999999999993
5,40.369743497085075,42.627640537905414,122.78536265904786,358.48467114846767,104.0,0.0,-7.800000000000007
5,40.370340874839385,42.62766127984288,109.16548867047254,358.48467114846767,96.5,0.0,-6.000000000000005
5,40.370928130620754,42.62768167051581,98.03099950452467,358.48467114846767,89.5,0.0,-3.600000000000003
5,40.37157213633222,42.62770403185703,91.08122291244673,358.48467114846767,83.0,0.0,-3.0000000000000027
5,40.37197348713878,42.62771796777999,86.93803617156213,358.48467114846767,75.0,0.0,-2.6000000000000023
5,40.372325724613276,42.62773019843122,83.67172624733772,358.48467114846767,67.5,0.0,-2.400000000000002
5,40.372758102486046,42.62774521186223,78.76574672774038,358.48467114846767,59.5,0.0,-3.200000000000003
5,40.37308581770083,42.62775659116373,74.30741082649634,358.48467114846767,52.0,0.0,-3.8000000000000034
5,40.373442770360306,42.62776898574482,68.23395231025594,358.48467114846767,45.5,0.0,-4.800000000000004
5,40.373743559938816,42.627779430208456,62.61615047330738,358.48467114846767,38.5,0.0,-5.600000000000005
5,40.37396662287865,42.62778717576314,57.904536405110115,358.48467114846767,31.0,0.0,-5.800000000000005
5,40.3740780228634,42.627791043984615,55.50064116555468,358.48467114846767,22.5,0.0,-6.800000000000006
5,40.37414154954598,42.627793249870194,53.85091472468079,358.48467114846767,13.5,0.0,-8.800000000000004
5,40.37419380982902,42.62779506454559,52.033043217429835,358.48467114846767,6.0,0.0,-10.2
5,40.374212434699906,42.62779571127215,51.36645128090381,358.48467114846767,3.5,0.0,-9.400000000000002
5,40.374429642954304,42.62780325358327,45.24890588836712,358.48467114846767,70.5,0.0,-6.600000000000006
5,40.37533989860382,42.627834861428795,28.90509018221107,358.48467114846767,154.5,0.0,-3.8000000000000034
5,40.37628409561561,42.62786764830199,21.978737897288525,358.48467114846767,244.5,0.0,-1.200000000000002
5,40.37730884671269,42.62790323290168,16.135389006290822,358.48467114846767,267.5,0.0,-1.400000000000002
5,40.37914164196462,42.62796687824383,6.498237924638211,358.48467114846767,260.5,0.0,-1.400000000000002
5,40.38048071946777,42.62801337994241,4.126753485531005,358.48467114846767,253.0,0.0,-0.4000000000000021
5,40.38190926928358,42.62806298972281,1.8680154734877925,358.48467114846767,245.5,0.0,0.19999999999999796
5,40.383762264723174,42.628127340934654,2.0914011285560754,358.48467114846767,239.0,0.0,-0.4000000000000021
5,40.385451790558186,42.628186016695686,1.9950589082543628,358.48467114846767,232.5,0.0,0.19999999999999796
5,40.3874626495022,42.62825585398304,1.279092369903574,358.48467114846767,226.0,0.0,-2.0539125955565396e-15
5,40.388598272218054,42.62829529519144,0.8247068940730722,358.48467114846767,219.0,0.0,-2.0539125955565396e-15
5,40.33151,42.58464,0.0,0.0,0.0,0.0,0.0
5,40.33151,42.58464,0,0.0,0.0,0.0,0.0
5,40.33156690338215,42.58464,0,0.0,63.0,0.0,0.0
5,40.33235500875156,42.58464404420566,2.4723660605695112,-1.1331197094098797,207.0,-6.0,2.4
5,40.33440197140692,42.58486019492813,27.250577381100552,-9.04727601334689,360.0,-10.5,4.200000000000001
5,40.33752872983769,42.586313869540554,90.74762402424389,-27.334149557335426,504.0,-11.5,4.600000000000001
5,40.34202670766728,42.58991630504386,154.86604662727552,-33.43512349892856,621.0,-5.0,1.9999999999999993
5,40.34717048361255,42.59448786555964,189.2659639577156,-34.99050640864388,756.0,-5.5,2.1999999999999993
5,40.35406833198282,42.60151026374317,261.80566423320175,-38.778159117563945,891.0,-3.0,1.1999999999999995
5,40.36208887000795,42.609992629280995,273.3958163824184,-38.86714957837568,900,0.5,-3.885780586188048e-16
5,40.36969609809429,42.61799734916045,300.4739969050328,-38.27754554339553,900,4.0,1.7999999999999994
5,40.37756791878123,42.62601071641227,335.13672885802504,-37.70197131895559,900,0.0,-3.885780586188048e-16
5,40.33151,42.58464,0.0,0.0,0.0,0.0,0.0
5,40.33158105808457,42.58464,0,0.0,36.0,0.0,0.0
5,40.33216116257797,42.5846401711805,0.40380502120255113,-0.24424252622698106,171.0,-3.5,1.4
5,40.33331838085619,42.584751935940815,13.311818530972543,-6.188981957298541,324.0,-8.0,3.2000000000000006
5,40.33532514015969,42.58535726601928,42.25851586345633,-17.747412402055133,477.0,-11.5,4.200000000000001
5,40.337458989078044,42.587205625623106,91.38776940980412,-38.934917850324645,630.0,-12.0,4.400000000000001
5,40.34067303492589,42.59162676456565,186.98842108793903,-50.18715383484922,765.0,-4.5,5.000000000000002
5,40.34384026522955,42.59690331203686,281.7689527280899,-51.931703461627,900.0,0.0,4.000000000000001
5,40.347433389353164,42.60291305725289,345.1910047215412,-51.198942395221685,895.0,3.5,3.4000000000000004
5,40.35245332943493,42.60932600630723,489.7520626633465,-37.4445509142678,886.0,11.5,6.600000000000003
5,40.361492882435314,42.61272001407801,790.7400578969418,5.646418718504712,876.5,19.0,9.599999999999998
5,40.36744309089594,42.6054041344988,1132.8035304056848,74.33165483730235,867.5,19.0,9.599999999999998
5,40.36677031391008,42.596983334884136,1321.7549522191007,110.18991284356403,858.0,9.5,5.800000000000002
5,40.36332136332097,42.58744173011161,1429.4176203036723,116.83928469126214,848.5,0.0,1.9999999999999984
5,40.35948196636321,42.57762825506162,1486.9357968012207,117.66632090441544,841.5,1.5,1.5999999999999985
5,40.35560789189571,42.56887216286748,1584.0798944335156,126.38834660264942,832.0,11.0,5.400000000000001
5,40.35061447937716,42.56148960362655,1690.2609193625622,134.14944295471767,824.0,5.0,2.999999999999999
5,40.344371329229766,42.55403742707468,1791.7452446037812,140.75652798665695,816.0,10.0,1.7999999999999985
5,40.33877268622038,42.548327974848256,1801.5115890912891,142.45756206865872,807.0,13.0,0.19999999999999873
5,40.33217155729977,42.54172239876499,1807.2336004243768,143.39120848570764,799.0,14.0,0.9999999999999987
5,40.32595483558911,42.53669771298473,1876.5010579735172,156.5727407815486,791.0,20.0,3.8
5,40.32019090702593,42.53628862150457,2005.5369064597892,207.89310447087098,781.0,30.0,7.800000000000003
5,40.317739346472685,42.54383111273203,2186.392270709778,272.4915260076005,772.0,25.0,5.800000000000002
5,40.31995853013139,42.55198401286597,2277.2900052772575,298.9578675231837,761.5,14.5,1.5999999999999985
5,40.322003781130555,42.55670622239393,2274.4806124021147,298.79352522849115,752.0,5.0,-1.4000000000000012
5,40.325804932313815,42.56593133830011,2246.7603080333615,298.2736908109398,744.5,0.0,-1.3877787807814457e-15
5,40.32957493513273,42.57512566170837,2237.245196878715,298.2736908109398,737.5,0.0,-1.6000000000000012
5,40.332479024991855,42.58220854868212,2151.0295264684846,298.2736908109398,727.5,0.0,-5.600000000000004
5,40.335043728717274,42.58846394928088,1991.7208459023989,298.2736908109398,717.0,0.0,-9.799999999999999
5,40.3379033951159,42.595439053454314,1725.6268352931622,298.2736908109398,707.0,0.0,-13.799999999999985
5,40.34064207317815,42.6021193286375,1382.7463110575763,298.2736908109398,696.5,0.0,-17.99999999999997
5,40.343655461946284,42.60947000019493,907.8363140077233,298.2736908109398,686.5,0.0,-21.999999999999957
5,40.34686499025903,42.6172994724756,358.83135557255065,298.2736908109398,678.5,0.0,-21.999999999999957
5,40.349467848743096,42.62364928919684,0,298.2736908109398,668.5,0.0,-17.99999999999997
5,40.352388918005076,42.630775686887425,0,298.2736908109398,659.0,0.0,-14.199999999999985
5,40.3549909179578,42.63712392864635,0,298.2736908109398,649.0,0.0,-10.2
5,40.35751119421852,42.6432730187228,0,298.2736908109398,639.0,0.0,-6.2000000000000055
5,40.359922702234684,42.64915694515628,0,298.2736908109398,628.5,0.0,-2.0000000000000018
5,40.33151,42.58464,0.0,0.0,0.0,0.0,0.0
5,40.331829129049446,42.584640007684314,0.08650887522101589,-0.008726269674588193,90.0,-1.0,0.4
5,40.332946294966625,42.58468724646479,11.012959653859243,-3.2037113082243964,252.0,-4.0,3.600000000000001
5,40.33508178755641,42.58493632396107,55.718630287228144,-8.617283806747501,423.0,-5.5,7.400000000000004
5,40.33740866883487,42.58603913797184,138.50119486897444,-25.03386414259119,603.0,-1.5,10.199999999999996
5,40.34005243141534,42.58727341298185,268.9530224818087,-7.807774278049706,783.0,8.5,14.199999999999982
5,40.34666978524363,42.58649323136864,612.6796529729953,15.429973166357993,900,2.5,12.599999999999987
5,40.35610913723347,42.58284102274772,1022.7910836826011,16.49448769095327,893.5,0.0,9.999999999999996
5,40.366237665837495,42.578905047071224,1372.558582485269,16.49448769095327,887.5,0.0,7.600000000000003
5,40.37556875533961,42.575278430845735,1598.9740968833212,16.49448769095327,880.0,0.0,4.6000000000000005
5,40.38478307698627,42.57169670429074,1715.2698566848567,16.49448769095327,873.5,0.0,1.9999999999999984
5,40.393038160399186,42.568487427998754,1738.3665418210344,16.49448769095327,866.5,0.0,-1.27675647831893e-15
5,40.33151,42.58464,0.0,0.0,0.0,0.0,0.0
5,40.331846738993725,42.58464,0,0.0,72.0,0.0,0.0
5,40.33309658066391,42.58464,0,0.0,207.0,0.0,0.0
5,40.33151,42.58464,0.0,0.0,0.0,0.0,0.0
5,40.33151,42.58464,0.0,0.0,0.0,0.0,0.0
5,40.33151,42.58464,0.0,0.0,0.0,0.0,0.0
5,40.33151,42.58464,0,0.0,0.0,0.0,0.2
5,40.331838785242894,42.58465725417137,3.6454965848949454,-4.024975958731459,144.0,-9.0,3.800000000000001
5,40.33312010716649,42.585261401449586,36.36818011188826,-34.15838472112139,324.0,-19.0,7.800000000000004
5,40.33543303567013,42.589117177504,122.25840478347781,-61.82108554022857,486.0,-10.0,5.8000000000000025
5,40.33778541603614,42.597113363688145,261.0012715657095,-71.31916879727663,630.0,-2.0,5.400000000000002
5,40.340656975535424,42.60768925798657,482.5707434135263,-66.74683847920872,783.0,5.5,8.400000000000002
5,40.33151,42.58464,0.0,0.0,0.0,0.0,0.0
5,40.33169471993041,42.58464185007222,1.047868766138806,-1.2691206690292147,126.0,-6.0,2.6
5,40.33249252423918,42.58480518546275,15.866053863027018,-13.502898143795866,306.0,-5.0,6.200000000000003
5,40.33433402903594,42.585490775448655,68.88665007564526,-15.529512244448357,373.5,0.5,7.600000000000003
5,40.335803240092574,42.585918926222334,121.89799794619816,-11.548617926583093,364.0,-2.0,11.399999999999991
5,40.337394210231245,42.58676034688171,202.02300196467874,-28.169667375442828,355.5,-5.5,12.799999999999986
5,40.338844185723254,42.58808235545856,291.7243832790475,-35.85086976340035,346.5,1.5,13.999999999999982
5,40.34127059979293,42.59014769352808,437.8337074460594,-32.11337937185806,339.0,0.0,12.199999999999989
5,40.34364771015607,42.59187614653542,546.2856436096309,-24.654043270122678,331.0,3.0,9.0
5,40.34666026228088,42.59342572914287,637.5611436578936,-20.429497250385243,372.0,0.0,6.400000000000002
5,40.3503005242814,42.59520488499951,707.0040924446972,-20.429497250385243,498.0,0.0,3.5999999999999996
5,40.35540341447587,42.597534690877325,790.1281189415197,-18.48758815096356,576.0,0.0,3.3999999999999995
5,40.36038440274833,42.59969759254388,830.5507858476615,-17.88055574069257,568.5,4.5,0.39999999999999875
5,40.33151,42.58464,0.0,0.0,0.0,0.0,0.0
5,40.33151,42.58464,0,0.0,0.0,-30.0,0.0
5,40.33151,42.58464,0,0.0,0.0,-33.0,0.0
5,40.33151,42.58464,0,0.0,0.0,-33.0,0.0
5,40.33151,42.58464,0.0,0.0,0.0,0.0,0.0
5,40.33151,42.58464,0,0.0,0.0,0.0,0.0
5,40.33195928006332,42.58464,0,0.0,90.0,0.0,0.0
5,40.33318163982988,42.58464,0,0.0,216.0,-1.5,0.0
5,40.335093139002716,42.58464966709813,5.434141163540424,-0.5512927172495579,304.0,-3.5,1.4
5,40.33742530337546,42.584804008526504,20.489440961648135,-3.4508284469485515,384.0,-2.5,1.0
5,40.341018750381345,42.5850923713039,21.707099634233995,-3.503180482969864,501.0,0.0,5.551115123125783e-17
5,40.3461550266513,42.585516673766776,24.740351687860635,-3.6951093762615588,636.0,0.0,-0.19999999999999996
5,40.3516002369368,42.58602367558891,45.620030183762104,-5.368021817206881,684.0,-7.0,2.6
5,40.357436412324084,42.58774469534707,142.64102586366312,-19.982989754986562,675.0,-14.0,5.400000000000002
5,40.3631828014918,42.592036594569784,268.8404358212561,-37.690569169678156,668.0,-14.0,5.000000000000002
5,40.36866969856358,42.598871563850444,370.54902017485205,-46.526877793731536,661.5,-7.5,2.3999999999999995
5,40.371875074824175,42.60352584574671,424.9828317542362,-48.325472558160186,652.0,2.0,5.000000000000002
5,40.374637675656096,42.606944692199356,521.9648462175637,-34.638744435370974,642.0,10.0,8.600000000000001
5,40.37872219587978,42.60781875661241,695.5067685616516,22.697624257648034,632.0,20.0,12.599999999999987
5,40.379869809971474,42.602098572817816,957.1450896445732,119.70173846384311,623.0,21.0,14.59999999999998
5,40.374891952678155,42.59956368904711,1251.3100188357444,189.9782384115924,614.5,13.5,12.399999999999988
5,40.36987652953619,42.6032700087805,1479.1730000659902,218.060516815782,606.5,5.5,9.2
5,40.3651579040063,42.60871103066671,1658.4816037093076,222.14866207535553,599.0,0.0,6.200000000000002
5,40.36044271226339,42.6143209355027,1775.6412235664839,222.1992759812461,592.0,0.0,3.3999999999999995
5,40.35684080743326,42.61860690207186,1793.2723257971902,222.1992759812461,582.5,0.0,-1.27675647831893e-15
5,40.35272035714942,42.6235100018223,1789.4088470273173,222.20276646253356,575.5,0.0,-0.8000000000000014
5,40.34715672797518,42.630130226891765,1744.6580884159591,222.20276646253356,569.5,0.0,-1.2000000000000015
5,40.34312452719428,42.634928067962775,1742.346100595378,222.20625694382102,562.0,0.0,0.1999999999999984
5,40.338751934089444,42.64013100215171,1744.629549536312,222.20625694382102,555.5,0.5,-1.609823385706477e-15
5,40.33432734552508,42.64539781703431,1746.3547952048789,222.22021780573644,549.0,0.0,0.1999999999999984
5,40.33085928986923,42.64953113237454,1751.4817443797826,222.52018446362828,541.0,3.5,0.5999999999999985
5,40.32693581378871,42.65444278448232,1780.4933837409951,225.04973202020793,532.5,7.0,1.9999999999999982
5,40.32396067666777,42.65917423846341,1838.4989090210913,234.4472726447576,524.0,9.5,2.999999999999999
5,40.32162663998626,42.66381870800283,1869.7235942134694,238.9367157412288,515.5,9.0,2.799999999999999
5,40.31971786472676,42.66879208152052,1914.82361805287,247.94833147196672,507.0,13.5,1.7999999999999985
5,40.31804586735692,42.67465461377482,1926.9159154749188,250.68649636021243,498.0,16.5,0.9999999999999987
5,40.31700527072654,42.679338120706134,1938.3869825838367,254.8988175186872,489.5,16.0,-1.27675647831893e-15
5,40.315806098499486,42.68525161982046,1939.8935655441678,255.24152199031,482.0,9.5,0.19999999999999873
5,40.314438721747614,42.69209276064616,1941.309934888913,255.36690043129008,475.5,3.0,-1.27675647831893e-15
5,40.313204203495474,42.69829992067321,1943.352476504582,255.3826050055244,469.0,0.0,0.19999999999999873
5,40.31197343220851,42.704488735845665,1945.3084150671614,255.3826050055244,462.0,0.0,0.19999999999999873
5,40.3108098689816,42.71033949816613,1947.1741958006087,255.3826050055244,455.0,0.0,0.19999999999999873
5,40.309522798872884,42.71681117496486,1948.3388189304278,255.3826050055244,448.5,0.0,-1.27675647831893e-15
5,40.30823420417803,42.72329039346963,1950.7273934019156,255.3826050055244,442.0,0.0,0.19999999999999873
5,40.33151,42.58464,0.0,0.0,0.0,0.0,0.0
5,40.33151,42.58464,0,0.0,0.0,0.0,0.0
5,40.33241379550059,42.58464,0,0.0,117.0,0.0,0.0
5,40.33483674470349,42.58463773574715,3.2358468866840226,0.261721109232653,270.0,2.0,1.2
5,40.339026760944606,42.58460948051632,29.966082158541948,0.24077556332066413,366.0,0.0,2.6
5,40.34393629292632,42.584582412136754,67.44033515930109,0.24077556332066413,358.0,0.0,2.1999999999999997
5,40.348460482632554,42.58455802345563,80.15833914470217,0.2320490278222902,350.5,0.0,5.551115123125783e-17
5,40.353210315889115,42.58456061598874,91.7501391558213,-0.20763944860165895,342.5,-1.0,0.4000000000000001
5,40.35749586015832,42.58466373063758,118.2716680944275,-1.8782888291427657,334.5,-4.0,1.9999999999999998
5,40.36140334368966,42.58504360725978,150.85687040157873,-5.257076239744027,326.0,-1.5,1.0
5,40.36597689548201,42.5855978727699,152.6986681673938,-5.2762740861928785,319.0,0.0,-0.19999999999999996
5,40.370638375295904,42.58616288955331,151.31932955715746,-5.2762740861928785,311.5,0.0,5.551115123125783e-17
5,40.37484501768901,42.58667272778195,150.5064519585162,-5.262312825582273,304.5,1.5,0.4000000000000001
5,40.37834350151658,42.58691479274848,183.71099161413795,1.7588458575604253,294.5,11.5,4.400000000000001
5,40.38181367553712,42.585605369470265,263.4283344409772,25.596871773047056,286.5,15.5,6.000000000000003
5,40.384045378553225,42.58317831850468,321.12523829699336,48.92035714535528,277.0,9.0,3.4000000000000004
5,40.38596474078597,42.579995311466796,348.25001904956815,52.70643217509337,268.0,1.0,2.1999999999999993
5,40.388393294665875,42.575822975510434,362.9478466822061,52.50055849665894,262.0,-4.0,0.19999999999999962
5,40.39053020340932,42.57221379429502,372.21797079052635,51.2327223617729,255.0,-7.0,1.7999999999999994
5,40.392928943047785,42.56858338576332,412.9420939972488,46.646264594492926,248.5,-5.5,3.2
5,40.39514400238252,42.56583538269362,456.5996833609724,37.589607172526534,239.0,-10.0,5.000000000000002
5,40.3976605640015,42.56414827293346,515.4863491221208,14.234866768231312,230.0,-15.0,4.200000000000001
5,40.40087519601887,42.56345343919493,550.6658065903321,5.515093208868224,223.0,-15.0,1.3999999999999995
5,40.40387982271363,42.56316877203642,555.8076429658059,3.229788884698382,215.5,-20.5,0.7999999999999996
5,40.406424579175216,42.56340334894347,575.5567507881867,-9.667271237535711,207.5,-26.5,1.9999999999999993
5,40.409446475246824,42.564372300297265,588.3370668036416,-15.38036569938081,201.0,-22.0,0.19999999999999962
5,40.411901149979265,42.56527472063103,589.2719636397094,-15.812725968849877,206.5,-14.5,-3.885780586188048e-16
5,40.414524454513526,42.56626234064649,590.133476179006,-16.079695844810892,234.5,-7.5,-3.885780586188048e-16
5,40.41784975781855,42.56752703970001,591.6260213149247,-16.177295421320352,262.5,-0.5,-3.885780586188048e-16
5,40.42136298397901,42.56886953451705,595.6759288286605,-16.623598721321404,296.5,-5.5,1.3999999999999995
5,40.425227840183474,42.570518132059995,621.1194580946502,-18.890648949429874,324.5,-3.5,0.9999999999999996
5,40.43001520543475,42.57268041029939,625.0930049284691,-18.979629842285682,350.5,0.0,-3.885780586188048e-16
5,40.434360644456206,42.574644290921704,626.8137290929842,-19.000567414162226,380.5,-3.0,0.19999999999999962
5,40.43931038376579,42.57692297443551,635.2477481889513,-19.71152524921758,412.5,-4.0,0.19999999999999962
5,40.4448196502406,42.579524609538375,637.417564482649,-19.843988183146262,444.5,-7.0,0.19999999999999962
5,40.450000360515695,42.581988123809126,639.2959248462598,-19.917213890974693,472.5,0.0,0.19999999999999962
5,40.456695981853095,42.585176370178694,642.1307854341679,-19.917213890974693,500.5,0.0,0.19999999999999962
5,40.463647814093484,42.58848695226564,644.5582271452485,-19.917213890974693,526.5,0.0,-3.885780586188048e-16
5,40.470654619217555,42.5918240591408,647.5790988415457,-19.917213890974693,554.5,0.0,-3.885780586188048e-16
5,40.477829426977536,42.595241540744624,650.3521194248729,-19.917213890974693,582.5,0.0,-3.885780586188048e-16
5,40.48596463098526,42.599116912999875,653.5053750176012,-19.917213890974693,610.5,0.0,-3.885780586188048e-16
5,40.494242020301584,42.603060502067834,656.8988547450322,-19.917213890974693,638.5,0.0,-3.885780586188048e-16
5,40.503145886227806,42.60730310528363,660.4714301515937,-19.917213890974693,666.5,0.0,-3.885780586188048e-16
5,40.51179340222547,42.6114240989882,664.3109559119606,-19.917213890974693,692.5,0.0,0.19999999999999962
5,40.52109068009597,42.61585532841157,667.6496071598808,-19.917213890974693,718.5,0.0,-3.885780586188048e-16
5,40.53094171235192,42.62055115411993,672.1781782409155,-19.917213890974693,744.5,0.0,0.19999999999999962
5,40.54139087430117,42.62553285481173,675.6030279365885,-19.917213890974693,774.5,0.0,-3.885780586188048e-16
5,40.551660385791095,42.630429658252304,679.4334489618959,-19.917213890974693,800.5,0.0,0.19999999999999962
5,40.56133233570261,42.63504221847022,683.7242496375081,-19.917213890974693,832.5,0.0,0.19999999999999962
5,40.57289037456289,42.640555125366554,688.1813293345739,-19.917213890974693,862.5,0.0,-3.885780586188048e-16
5,40.58506962020381,42.64636536296904,693.4579995477992,-19.917213890974693,892.5,0.0,0.19999999999999962
5,40.59676876631549,42.65194755987241,697.3594920556549,-19.917213890974693,900,0.0,-3.885780586188048e-16
5,40.60911149822529,42.65783789800263,703.1188711488315,-19.917213890974693,900,0.0,0.19999999999999962
5,40.620481236919204,42.66326485689401,708.6063684287842,-19.917213890974693,900,0.0,-3.885780586188048e-16
5,40.63270010298258,42.669098144517235,713.9184746863864,-19.917213890974693,900,0.0,-3.885780586188048e-16
5,40.644907176479414,42.67492686624845,719.2419217427887,-19.917213890974693,900,0.0,-3.885780586188048e-16
5,40.655396595316496,42.679936289166136,722.8610252292352,-19.917213890974693,900,0.0,-3.885780586188048e-16
5,40.66796286575806,42.685938584693616,727.7042084439245,-19.917213890974693,900,0.0,0.19999999999999962
5,40.679907058232935,42.69164479347492,732.532449607543,-19.917213890974693,900,0.0,-3.885780586188048e-16
5,40.69248310849109,42.697653970281884,738.3060554448189,-19.917213890974693,900,0.0,-3.885780586188048e-16
5,40.704185420724876,42.7032466717641,743.0781910754532,-19.917213890974693,900,0.0,-3.885780586188048e-16
5,40.716338028554134,42.70905561371525,747.8209759008713,-19.917213890974693,900,0.0,-3.885780586188048e-16
5,40.72898719720809,42.715103037455,753.3326513054701,-19.917213890974693,900,0.0,0.19999999999999962
5,40.739671953078044,42.72021219682342,758.5797394999677,-19.917213890974693,894.5,0.0,-3.885780586188048e-16
5,40.75134994799329,42.725797233246155,765.4384039646638,-19.917213890974693,886.0,0.0,0.19999999999999962
5,40.763164780049955,42.73144870930956,770.278579513691,-19.917213890974693,879.0,0.0,0.19999999999999962
5,40.775664186152426,42.73742872763507,775.8779280964079,-19.917213890974693,872.5,0.0,-3.885780586188048e-16
5,40.787157164404775,42.74292824968958,780.9016810552199,-19.917213890974693,865.5,0.0,-3.885780586188048e-16
5,40.79901464338269,42.748603184606786,784.4653151466932,-19.917213890974693,858.5,0.0,-3.885780586188048e-16
5,40.8098908859073,42.753809394914,789.0605991797006,-19.917213890974693,852.0,0.0,0.19999999999999962
5,40.82006834924065,42.75868189527441,792.6901319150271,-19.917213890974693,844.0,0.0,0.19999999999999962
5,40.83200577088644,42.76439792966105,797.6900021930267,-19.917213890974693,837.0,0.0,0.19999999999999962
5,40.842976661482794,42.769652063484685,800.6722664355742,-19.917213890974693,830.0,0.0,0.19999999999999962
5,40.852954725821384,42.77443147598135,804.618424729313,-19.917213890974693,823.0,0.0,0.19999999999999962
5,40.86360950377483,42.779535824235076,808.7668161504761,-19.917213890974693,816.5,0.0,-3.885780586188048e-16
5,40.873830346360634,42.78443306070514,813.0525189756156,-19.917213890974693,809.0,0.0,0.19999999999999962
5,40.88451289096921,42.78955232576044,817.1380489687966,-19.917213890974693,802.0,0.0,0.19999999999999962
5,40.895340292516984,42.79474185104895,821.3047137225518,-19.917213890974693,795.5,0.0,-3.885780586188048e-16
5,40.90501034713823,42.79937738550015,825.4681696899602,-19.917213890974693,788.5,0.0,-3.885780586188048e-16
5,40.915180391218904,42.80425333093694,830.2321913410342,-19.917213890974693,781.0,0.0,0.19999999999999962
5,40.92561293520403,42.80925590383102,834.2376263203853,-19.917213890974693,775.0,0.0,0.19999999999999962
5,40.93611938211743,42.81429471802009,837.8867387127709,-19.917213890974693,768.5,0.0,-3.885780586188048e-16
5,40.94688746284778,42.81945984137452,842.5101225011557,-19.917213890974693,762.0,0.0,0.19999999999999962
5,40.956248830078664,42.8239508913739,846.3734096551514,-19.917213890974693,755.5,0.0,-3.885780586188048e-16
5,40.96610038384127,42.82867779382277,849.9098513783223,-19.917213890974693,748.5,0.0,-3.885780586188048e-16
5,40.97613157543099,42.83349161297832,854.6388042058921,-19.917213890974693,742.0,0.0,0.19999999999999962
5,40.986169681551026,42.83830948316976,857.9926882524079,-19.917213890974693,735.5,0.0,-3.885780586188048e-16
5,40.99387458238472,42.84184315976751,901.2397217091952,-16.5436871974399,726.0,9.0,3.4000000000000004
5,41.00104334284131,42.84277279156645,1049.723146096506,9.213783104931405,716.5,18.5,7.200000000000004
5,41.00594720903684,42.835998866596995,1299.606837606691,73.8175095964309,707.0,23.0,8.600000000000001
5,41.005355613952666,42.82606960621845,1499.992349436367,113.46949118010235,697.5,13.5,4.800000000000001
5,41.00189711145412,42.8180819774801,1570.7755202377878,122.35604973868081,687.5,3.5,0.7999999999999987
5,40.9968320388443,42.80751216995739,1575.6516025189808,122.41536944800067,680.5,0.0,-1.27675647831893e-15
5,40.991820671970856,42.79705607235422,1579.6067605079254,122.41536944800067,674.0,0.0,0.19999999999999873
5,40.98704825257005,42.787099275237615,1583.2788286806076,122.41536944800067,666.5,0.0,-1.27675647831893e-15
5,40.98255140450972,42.77764811866483,1606.0091019544946,121.57294077529323,658.0,-4.5,1.7999999999999985
5,40.979361554728314,42.769288658555936,1696.971894482486,111.43692106271011,648.5,-10.0,3.1999999999999993
5,40.9769888365659,42.75899333150058,1770.9854410977955,104.78021998365519,640.5,-7.0,1.5999999999999985
5,40.974891511314915,42.748114638161326,1788.7311314311464,104.22783865266493,633.5,0.0,-1.27675647831893e-15
5,40.97263229226213,42.73631326713564,1792.150073477283,104.22783865266493,626.5,0.0,-1.27675647831893e-15
5,40.97052964448269,42.725330132901604,1796.2168239443813,104.22783865266493,619.5,0.0,-1.27675647831893e-15
5,40.968280049108984,42.713579808565854,1800.17162174152,104.22783865266493,613.0,0.0,0.19999999999999873
5,40.96627948604561,42.703130593240324,1803.1559128436136,104.22783865266493,606.0,0.0,0.19999999999999873
5,40.96416721159884,42.69209823831894,1806.52179014293,104.22783865266493,599.0,0.0,0.19999999999999873
5,40.96227033498946,42.68219120198951,1809.3883824538257,104.22783865266493,591.5,0.0,-1.27675647831893e-15
5,40.960298153138034,42.671891161572205,1813.1974406974487,104.22783865266493,585.0,0.0,0.19999999999999873
5,40.95826863411743,42.66129198911728,1816.1877909555897,104.22783865266493,578.0,0.0,0.19999999999999873
5,40.956377320624725,42.651414890023034,1818.735599381847,104.22783865266493,571.5,0.0,-1.27675647831893e-15
5,40.95429908271588,42.640561932421065,1821.8909415570517,104.22783865266493,565.0,0.0,0.19999999999999873
5,40.95249656463825,42.631149114591324,1825.1518229515884,104.22783865266493,557.5,0.0,-1.27675647831893e-15
5,40.95055144414104,42.62099190973967,1828.3130207012337,104.22783865266493,550.5,0.0,-1.27675647831893e-15
5,40.948951415143476,42.61263696064128,1831.4478862086248,104.22783865266493,541.5,0.0,-1.27675647831893e-15
5,40.9473302968745,42.60417209417341,1833.394145683346,104.22783865266493,533.5,0.0,-1.27675647831893e-15
5,40.94570127291041,42.5956661568852,1837.0365678608111,104.22783865266493,525.0,0.0,0.19999999999999873
5,40.94383716372574,42.58593298051311,1839.4576820933385,104.22783865266493,518.0,0.0,0.19999999999999873
5,40.94221783751966,42.57747812651583,1841.9020044301767,104.22783865266493,511.0,0.0,0.19999999999999873
5,40.94049264354906,42.56847074043501,1844.0015119220918,104.22783865266493,504.5,0.0,-1.27675647831893e-15
5,40.938722799025726,42.55923047619183,1847.0193139673625,104.22783865266493,498.0,0.0,0.19999999999999873
5,40.93709282286818,42.55072067606793,1849.214685280054,104.22783865266493,490.0,0.0,0.19999999999999873
5,40.9352737570263,42.54122392163344,1852.0354579683165,104.22783865266493,482.5,0.0,-1.27675647831893e-15
5,40.934545145971335,42.53742015299677,1852.9645295553812,104.22783865266493,474.5,0.0,-1.27675647831893e-15
5,40.93341201070368,42.53150461683308,1854.90628735158,104.22783865266493,469.0,0.0,0.19999999999999873
5,40.933072658103434,42.52973304557671,1855.5316860107325,104.22783865266493,460.0,0.0,0.19999999999999873
5,40.93134510421263,42.52071455878664,1856.3730627374305,104.22783865266493,452.5,0.0,-1.27675647831893e-15
5,40.92997159565172,42.51354451512855,1858.567195334855,104.22783865266493,445.0,0.0,0.19999999999999873
5,40.92961450036668,42.511680416783946,1858.9840053687194,104.22783865266493,439.5,0.0,-1.27675647831893e-15
5,40.928463335033655,42.505671206404294,1861.2193036692956,104.22783865266493,429.5,0.0,-1.27675647831893e-15
5,40.92695073138396,42.49777540581893,1863.8300986835297,104.22783865266493,422.0,0.0,0.19999999999999873
5,40.33151,42.58464,0.0,0.0,0.0,0.0,0.0
5,40.33181309660236,42.58464,0,0.0,63.0,0.0,0.0
5,40.33380504981636,42.58464,0,0.0,189.0,0.0,0.0
5,40.33697274187829,42.58464,0,0.0,271.0,3.5,0.0
5,40.34047065317902,42.58462792977832,7.624390261519052,0.6139490804453753,290.0,1.0,2.1999999999999997
5,40.34424731491518,42.58444211084719,63.70371434054282,5.528912553925364,308.0,7.0,5.400000000000002
5,40.348058839106585,42.58318514441287,159.9179595678008,23.28906688944312,324.0,11.0,7.0000000000000036
5,40.35159272983846,42.58005857337918,277.0109792045,44.34956925134938,338.0,12.0,7.400000000000004
5,40.3546950069256,42.57474257772306,388.91440824437495,56.58753589332894,352.0,5.0,4.600000000000001
5,40.357516627042564,42.56879137603688,449.7095554187963,58.61102319903016,366.0,1.0,2.1999999999999993
5,40.35992860657734,42.56354199521579,478.1652583249235,59.42062840751585,381.0,3.5,2.3999999999999995
5,40.36218512340844,42.55848258953695,524.2669084319723,59.553185629152054,401.0,0.0,1.9999999999999993
5,40.36501312830412,42.5521682650331,536.8143255636112,59.553185629152054,417.0,0.0,-3.885780586188048e-16
5,40.368117938957724,42.54523559035323,539.2861786068686,59.553185629152054,431.0,0.0,-3.885780586188048e-16
5,40.370971452048906,42.53886375096246,542.0568367389121,59.553185629152054,446.0,0.0,0.19999999999999962
5,40.374107269552596,42.531861220303824,543.9916707223214,59.553185629152054,461.0,0.0,-3.885780586188048e-16
5,40.37740199575291,42.52450348616431,546.627737355421,59.553185629152054,474.0,0.0,0.19999999999999962
5,40.38128403124566,42.51583371927098,549.2492730271545,59.553185629152054,487.0,0.0,-3.885780586188048e-16
5,40.38461212853489,42.50840066729496,552.1844895361551,59.553185629152054,501.0,0.0,-3.885780586188048e-16
5,40.388267158563266,42.50023701292177,555.3373745424481,59.553185629152054,517.0,0.0,-3.885780586188048e-16
5,40.391781111264635,42.49238804052281,558.0202813602178,59.553185629152054,534.0,0.0,0.19999999999999962
5,40.395034481906634,42.48512075261387,560.7177868584096,59.553185629152054,554.0,0.0,0.19999999999999962
5,40.398936353861025,42.47640440154703,563.8744028226417,59.553185629152054,571.0,0.0,-3.885780586188048e-16
5,40.33151,42.58464,0.0,0.0,0.0,0.0,0.0
5,40.331566887904025,42.58464000931233,0,-0.024432438659312085,36.0,1.5,-0.6000000000000001
5,40.33260976394133,42.584648818145915,5.250044883672213,-0.6089417994360884,198.0,-2.5,1.7999999999999998
5,40.33446271541471,42.58478368005948,28.399193849466606,-5.551074916484113,351.0,-4.0,4.400000000000001
5,40.33773883078022,42.58527443823328,76.28585557530998,-6.135460698035133,362.5,2.5,4.200000000000001
